GNVTG,99.55,T,,M,0.00,N,0.00,K,A*13
$GNZDA,052737.000,16,03,2021,00,00*49
$GPTXT,01,01,01,ANTENNA OK*35
$GNGGA,052738.000,2919.97662,N,12002.34163,E,1,15,1.5,113.0,M,0.0,M,,*77
$GNGLL,2919.97662,N,12002.34163,E,052738.000,A,A*41
$GPGSA,A,3,16,21,26,27,31,193,194,195,199,,,,1.9,1.5,1.2*31
$BDGSA,A,3,11,23,25,28,34,43,,,,,,,1.9,1.5,1.2*20
$GPGSV,4,1,14,04,39,223,,07,25,318,,08,67,242,,09,36,270,*7A
$GPGSV,4,2,14,16,41,047,33,18,,,27,21,21,174,27,26,23,073,32*40
$GPGSV,4,3,14,27,69,026,27,31,08,132,25,193,11,171,15,194,65,067,29*70
$GPGSV,4,4,14,195,68,109,27,199,55,166,30*71
$BDGSV,2,1,06,11,37,044,27,23,70,031,27,25,34,107,32,28,55,193,21*68
$BDGSV,2,2,06,34,14,040,30,43,62,059,22*64
$GNRMC,052738.000,A,2919.97662,N,12002.34163,E,0.00,99.55,160321,,,A*41
$GNVTG,99.55,T,,M,0.00,N,0.00,K,A*13
$GNZDA,052738.000,16,03,2021,00,00*46
$GPTXT,01,01,01,ANTENNA OK*35
$GNGGA,052739.000,2919.97661,N,12002.34162,E,1,15,1.5,113.0,M,0.0,M,,*74
$GNGLL,2919.97661,N,12002.34162,E,052739.000,A,A*42
$GPGSA,A,3,16,21,26,27,31,193,194,195,199,,,,1.9,1.5,1.2*31
$BDGSA,A,3,11,23,25,28,34,43,,,,,,,1.9,1.5,1.2*20
$GPGSV,4,1,14,04,39,223,,07,25,318,,08,67,242,,09,36,270,*7A
$GPGSV,4,2,14,16,41,047,33,18,,,27,21,21,174,27,26,23,073,33*41
$GPGSV,4,3,14,27,69,026,25,31,08,132,25,193,11,171,15,194,65,067,29*72
$GPGSV,4,4,14,195,68,109,26,199,55,166,30*70
$BDGSV,2,1,06,11,37,044,27,23,70,031,27,25,34,107,32,28,55,193,21*68
$BDGSV,2,2,06,34,14,040,30,43,62,059,22*64
$GNRMC,052739.000,A,2919.97661,N,12002.34162,E,0.00,99.55,160321,,,A*42
$GNVTG,99.55,T,,M,0.00,N,0.00,K,A*13
$GNZDA,052739.000,16,03,2021,00,00*47
$GPTXT,01,01,01,ANTENNA OK*35
$GNGGA,052740.000,2919.97660,N,12002.34161,E,1,15,1.5,113.0,M,0.0,M,,*78
$GNGLL,2919.97660,N,12002.34161,E,052740.000,A,A*4E
$GPGSA,A,3,16,21,26,27,31,193,194,195,199,,,,1.9,1.5,1.2*31
$BDGSA,A,3,11,23,25,28,34,43,,,,,,,1.9,1.5,1.2*20
$GPGSV,4,1,14,04,39,223,,07,25,318,,08,67,242,,09,36,270,*7A
$GPGSV,4,2,14,16,41,047,34,18,,,27,21,21,174,27,26,23,073,33*46
$GPGSV,4,3,14,27,69,026,25,31,08,132,25,193,11,171,15,194,65,067,29*72
$GPGSV,4,4,14,195,68,109,26,199,55,166,30*70
$BDGSV,2,1,06,11,37,044,27,23,70,031,27,25,34,107,32,28,55,193,21*68
$BDGSV,2,2,06,34,14,040,30,43,62,059,22*64
$GNRMC,052740.000,A,2919.97660,N,12002.34161,E,0.00,99.55,160321,,,A*4E
$GNVTG,99.55,T,,M,0.00,N,0.00,K,A*13
$GNZDA,052740.000,16,03,2021,00,00*49
$GPTXT,01,01,01,ANTENNA OK*35
$GNGGA,052741.000,2919.97660,N,12002.34160,E,1,15,1.5,112.9,M,0.0,M,,*70
$GNGLL,2919.97660,N,12002.34160,E,052741.000,A,A*4E
$GPGSA,A,3,16,21,26,27,31,193,194,195,199,,,,1.9,1.5,1.2*31
$BDGSA,A,3,11,23,25,28,34,43,,,,,,,1.9,1.5,1.2*20
$GPGSV,4,1,14,04,39,223,,07,25,318,,08,67,242,,09,36,270,*7A
$GPGSV,4,2,14,16,41,047,34,18,,,27,21,21,174,28,26,23,073,34*4E
$GPGSV,4,3,14,27,69,026,25,31,08,132,25,193,11,171,15,194,65,067,29*72
$GPGSV,4,4,14,195,68,109,26,199,55,166,30*70
$BDGSV,2,1,06,11,37,044,27,23,70,031,27,25,34,107,32,28,55,193,21*68
$BDGSV,2,2,06,34,14,040,30,43,62,059,22*64
$GNRMC,052741.000,A,2919.97660,N,12002.34160,E,0.00,99.55,160321,,,A*4E
$GNVTG,99.55,T,,M,0.00,N,0.00,K,A*13
$GNZDA,052741.000,16,03,2021,00,00*48
$GPTXT,01,01,01,ANTENNA OK*35
$GNGGA,052742.000,2919.97658,N,12002.34159,E,1,15,1.5,112.9,M,0.0,M,,*72
$GNGLL,2919.97658,N,12002.34159,E,052742.000,A,A*4C
$GPGSA,A,3,16,21,26,27,31,193,194,195,199,,,,1.9,1.5,1.2*31
$BDGSA,A,3,11,23,25,28,34,43,,,,,,,1.9,1.5,1.2*20
$GPGSV,4,1,14,04,39,223,,07,25,318,,08,67,242,,09,36,270,*7A
$GPGSV,4,2,14,16,41,047,34,18,,,28,21,21,174,28,26,23,073,34*41
$GPGSV,4,3,14,27,69,026,25,31,08,132,22,193,11,171,15,194,65,067,29*75
$GPGSV,4,4,14,195,68,109,26,199,55,166,30*70
$BDGSV,2,1,06,11,37,044,27,23,70,031,27,25,34,107,31,28,55,193,21*6B
$BDGSV,2,2,06,34,14,040,30,43,62,059,22*64
$GNRMC,052742.000,A,2919.97658,N,12002.34159,E,0.00,99.55,160321,,,A*4C
$GNVTG,99.55,T,,M,0.00,N,0.00,K,A*13
$GNZDA,052742.000,16,03,2021,00,00*4B
$GPTXT,01,01,01,ANTENNA OK*35
$GNGGA,052743.000,2919.97657,N,12002.34158,E,1,15,1.5,112.9,M,0.0,M,,*7D
$GNGLL,2919.97657,N,12002.34158,E,052743.000,A,A*43
$GPGSA,A,3,16,21,26,27,31,193,194,195,199,,,,1.9,1.5,1.2*31
$BDGSA,A,3,11,23,25,28,34,43,,,,,,,1.9,1.5,1.2*20
$GPGSV,4,1,14,04,39,223,,07,25,318,,08,67,242,,09,36,270,*7A
$GPGSV,4,2,14,16,41,047,34,18,,,28,21,21,174,28,26,23,073,34*41
$GPGSV,4,3,14,27,69,026,25,31,08,132,22,193,11,171,15,194,66,067,29*76
$GPGSV,4,4,14,195,68,109,26,199,55,166,30*70
$BDGSV,2,1,06,11,37,044,27,23,70,031,27,25,34,107,31,28,55,193,21*6B
$BDGSV,2,2,06,34,14,040,30,43,62,059,20*66
$GNRMC,052743.000,A,2919.97657,N,12002.34158,E,0.00,99.55,160321,,,A*43
$GNVTG,99.55,T,,M,0.00,N,0.00,K,A*13
$GNZDA,052743.000,16,03,2021,00,00*4A
$GPTXT,01,01,01,ANTENNA OK*35
$GNGGA,052744.000,2919.97656,N,12002.34157,E,1,15,1.5,112.9,M,0.0,M,,*74
$GNGLL,2919.97656,N,12002.34157,E,052744.000,A,A*4A
$GPGSA,A,3,16,21,26,27,31,193,194,195,199,,,,1.9,1.5,1.2*31
$BDGSA,A,3,11,23,25,28,34,43,,,,,,,1.9,1.5,1.2*20
$GPGSV,4,1,14,04,39,223,,07,25,318,,08,67,242,,09,36,270,*7A
$GPGSV,4,2,14,16,41,047,34,18,,,28,21,21,174,28,26,23,073,33*46
$GPGSV,4,3,14,27,69,026,25,31,08,132,22,193,11,171,15,194,66,067,29*76
$GPGSV,4,4,14,195,68,109,26,199,55,166,30*70
$BDGSV,2,1,06,11,37,044,27,23,70,031,27,25,34,107,31,28,55,193,21*6B
$BDGSV,2,2,06,34,14,040,29,43,62,059,20*6E
$GNRMC,052744.000,A,2919.97656,N,12002.34157,E,0.00,99.55,160321,,,A*4A
$GNVTG,99.55,T,,M,0.00,N,0.00,K,A*13
$GNZDA,052744.000,16,03,2021,00,00*4D
$GPTXT,01,01,01,ANTENNA OK*35
$GNGGA,052745.000,2919.97655,N,12002.34156,E,1,15,1.5,112.9,M,0.0,M,,*77
$GNGLL,2919.97655,N,12002.34156,E,052745.000,A,A*49
$GPGSA,A,3,16,21,26,27,31,193,194,195,199,,,,1.9,1.5,1.2*31
$BDGSA,A,3,11,23,25,28,34,43,,,,,,,1.9,1.5,1.2*20
$GPGSV,4,1,14,04,39,223,,07,25,318,,08,67,242,,09,36,270,*7A
$GPGSV,4,2,14,16,41,047,34,18,,,28,21,21,174,28,26,23,073,33*46
$GPGSV,4,3,14,27,69,026,24,31,08,132,24,193,11,171,15,194,66,067,29*71
$GPGSV,4,4,14,195,68,109,26,199,55,166,30*70
$BDGSV,2,1,06,11,37,044,27,23,70,031,27,25,34,107,30,28,55,193,21*6A
$BDGSV,2,2,06,34,14,040,29,43,62,059,20*6E
$GNRMC,052745.000,A,2919.97655,N,12002.34156,E,0.00,99.55,160321,,,A*49
$GNVTG,99.55,T,,M,0.00,N,0.00,K,A*13
$GNZDA,052745.000,16,03,2021,00,00*4C
$GPTXT,01,01,01,ANTENNA OK*35
$GNGGA,052746.000,2919.97653,N,12002.34155,E,1,15,1.5,112.8,M,0.0,M,,*70
$GNGLL,2919.97653,N,12002.34155,E,052746.000,A,A*4F
$GPGSA,A,3,16,21,26,27,31,193,194,195,199,,,,1.9,1.5,1.2*31
$BDGSA,A,3,11,23,25,28,34,43,,,,,,,1.9,1.5,1.2*20
$GPGSV,4,1,14,04,39,223,,07,25,318,,08,67,242,,09,36,270,*7A
$GPGSV,4,2,14,16,41,047,34,18,,,28,21,21,174,28,26,23,073,33*46
$GPGSV,4,3,14,27,69,026,24,31,08,132,24,193,11,171,15,194,66,067,29*71
$GPGSV,4,4,14,195,68,109,25,199,55,166,30*73
$BDGSV,2,1,06,11,37,044,27,23,70,031,27,25,34,107,30,28,55,193,21*6A
$BDGSV,2,2,06,34,14,040,29,43,62,059,20*6E
$GNRMC,052746.000,A,2919.97653,N,12002.34155,E,0.00,99.55,160321,,,A*4F
$GNVTG,99.55,T,,M,0.00,N,0.00,K,A*13
$GNZDA,052746.000,16,03,2021,00,00*4F
$GPTXT,01,01,01,ANTENNA OK*35
$GNGGA,052747.000,2919.97652,N,12002.34154,E,1,15,1.5,112.8,M,0.0,M,,*71
$GNGLL,2919.97652,N,12002.34154,E,052747.000,A,A*4E
$GPGSA,A,3,16,21,26,27,31,193,194,195,199,,,,1.9,1.5,1.2*31
$BDGSA,A,3,11,23,25,28,34,43,,,,,,,1.9,1.5,1.2*20
$GPGSV,4,1,14,04,39,223,,07,25,318,,08,67,242,,09,36,270,*7A
$GPGSV,4,2,14,16,41,047,34,18,,,28,21,21,174,28,26,23,073,33*46
$GPGSV,4,3,14,27,69,026,24,31,08,132,24,193,11,171,15,194,66,067,29*71
$GPGSV,4,4,14,195,68,109,25,199,55,166,30*73
$BDGSV,2,1,06,11,37,044,27,23,70,031,27,25,34,107,30,28,55,193,21*6A
$BDGSV,2,2,06,34,14,040,29,43,62,059,20*6E
$GNRMC,052747.000,A,2919.97652,N,12002.34154,E,0.00,99.55,160321,,,A*4E
$GNVTG,99.55,T,,M,0.00,N,0.00,K,A*13
$GNZDA,052747.000,16,03,2021,00,00*4E
$GPTXT,01,01,01,ANTENNA OK*35
$GNGGA,052748.000,2919.97651,N,12002.34154,E,1,15,1.5,112.8,M,0.0,M,,*7D
$GNGLL,2919.97651,N,12002.34154,E,052748.000,A,A*42
$GPGSA,A,3,16,21,26,27,31,193,194,195,199,,,,1.9,1.5,1.2*31
$BDGSA,A,3,11,23,25,28,34,43,,,,,,,1.9,1.5,1.2*20
$GPGSV,4,1,14,04,39,223,,07,25,318,,08,67,242,,09,36,270,*7A
$GPGSV,4,2,14,16,41,047,34,18,,,28,21,21,174,28,26,23,073,33*46
$GPGSV,4,3,14,27,69,026,24,31,08,132,24,193,11,171,15,194,66,067,30*79
$GPGSV,4,4,14,195,68,109,25,199,55,166,30*73
$BDGSV,2,1,06,11,37,044,27,23,70,031,27,25,34,107,30,28,55,193,21*6A
$BDGSV,2,2,06,34,14,040,28,43,62,059,20*6F
$GNRMC,052748.000,A,2919.97651,N,12002.34154,E,0.00,99.55,160321,,,A*42
$GNVTG,99.55,T,,M,0.00,N,0.00,K,A*13
$GNZDA,052748.000,16,03,2021,00,00*41
$GPTXT,01,01,01,ANTENNA OK*35
$GNGGA,052749.000,2919.97649,N,12002.34154,E,1,15,1.5,112.8,M,0.0,M,,*75
$GNGLL,2919.97649,N,12002.34154,E,052749.000,A,A*4A
$GPGSA,A,3,16,21,26,27,31,193,194,195,199,,,,1.9,1.5,1.2*31
$BDGSA,A,3,11,23,25,28,34,43,,,,,,,1.9,1.5,1.2*20
$GPGSV,4,1,14,04,39,223,,07,25,318,,08,67,242,,09,36,270,*7A
$GPGSV,4,2,14,16,41,047,34,18,,,28,21,21,174,29,26,23,073,33*47
$GPGSV,4,3,14,27,69,026,20,31,08,132,24,193,11,171,15,194,66,067,30*7D
$GPGSV,4,4,14,195,68,109,25,199,55,166,30*73
$BDGSV,2,1,06,11,37,044,27,23,70,031,27,25,34,107,30,28,55,193,21*6A
$BDGSV,2,2,06,34,14,040,28,43,62,059,21*6E
$GNRMC,052749.000,A,2919.97649,N,12002.34154,E,0.00,99.55,160321,,,A*4A
$GNVTG,99.55,T,,M,0.00,N,0.00,K,A*13
$GNZDA,052749.000,16,03,2021,00,00*40
$GPTXT,01,01,01,ANTENNA OK*35
$GNGGA,052750.000,2919.97648,N,12002.34154,E,1,15,1.5,112.8,M,0.0,M,,*7C
$GNGLL,2919.97648,N,12002.34154,E,052750.000,A,A*43
$GPGSA,A,3,16,21,26,27,31,193,194,195,199,,,,1.9,1.5,1.2*31
$BDGSA,A,3,11,23,25,28,34,43,,,,,,,1.9,1.5,1.2*20
$GPGSV,4,1,14,04,39,223,,07,25,318,,08,67,242,,09,36,270,*7A
$GPGSV,4,2,14,16,41,047,34,18,,,28,21,21,174,29,26,23,073,33*47
$GPGSV,4,3,14,27,69,026,20,31,08,132,24,193,11,171,15,194,66,067,30*7D
$GPGSV,4,4,14,195,68,109,25,199,55,166,30*73
$BDGSV,2,1,06,11,37,044,27,23,70,031,27,25,34,107,30,28,55,193,21*6A
$BDGSV,2,2,06,34,14,040,28,43,62,059,21*6E
$GNRMC,052750.000,A,2919.97648,N,12002.34154,E,0.00,99.55,160321,,,A*43
$GNVTG,99.55,T,,M,0.00,N,0.00,K,A*13
$GNZDA,052750.000,16,03,2021,00,00*48
$GPTXT,01,01,01,ANTENNA OK*35
$GNGGA,052751.000,2919.97670,N,12002.34150,E,1,15,1.5,111.7,M,0.0,M,,*7E
$GNGLL,2919.97670,N,12002.34150,E,052751.000,A,A*4D
$GPGSA,A,3,16,21,26,27,31,193,194,195,199,,,,1.9,1.5,1.2*31
$BDGSA,A,3,11,23,25,28,34,43,,,,,,,1.9,1.5,1.2*20
$GPGSV,4,1,14,04,39,223,,07,25,318,,08,67,242,,09,36,270,*7A
$GPGSV,4,2,14,16,41,047,33,18,,,28,21,21,174,29,26,23,073,33*40
$GPGSV,4,3,14,27,69,026,20,31,08,132,24,193,11,171,15,194,66,067,30*7D
$GPGSV,4,4,14,195,68,109,25,199,55,166,30*73
$BDGSV,2,1,06,11,37,044,27,23,70,031,27,25,34,107,30,28,55,193,21*6A
$BDGSV,2,2,06,34,14,040,28,43,62,059,24*6B
$GNRMC,052751.000,A,2919.97670,N,12002.34150,E,0.87,99.55,160321,,,A*42
$GNVTG,99.55,T,,M,0.87,N,1.60,K,A*1B
$GNZDA,052751.000,16,03,2021,00,00*49
$GPTXT,01,01,01,ANTENNA OK*35
$GNGGA,052752.000,2919.97682,N,12002.34159,E,1,15,1.5,111.1,M,0.0,M,,*7F
